Accel X Vib,Accel Y Vib,Accel Z Vib,Airspeed,Airspeed Unfiltered,Alt Variance,Altitude,AutonomousFlag,Average FCS Time,BaroAirspeed,BaroAltitude,Battery Ah used,Battery Level,Battery Power,Battery Wh used,Crosstrack Angle,Crosstrack East Dist Adj,Crosstrack North Dist Adj,CurrentWP,EAltitude,ECU voltage,EGPSEast,EGPSNorth,EPitch,EPitchRate,ERoll,ERollRate,EYawRate,East Distance,FCS voltage,FCSTargetCourse,GPS Altitude,GPS Fix,GPS HDOP,GPS Latitude,GPS Longitude,GPS Messages,GPS PDOP,GPS Parse Errors,GPS Sat Count,GPS Sys Count,GPS VDOP,Groundspeed,Gyro X Vib,Gyro Y Vib,Gyro Z Vib,Heading,Latitude,Longitude,Mag Variance,Mag X,Mag Y,Mag Z,Max FCS Time,North Distance,PWMAileron,PWMElevator,PWMQuadThrottle0,PWMQuadThrottle1,PWMQuadThrottle2,PWMQuadThrottle3,PWMRudder,PWMThrottle,Parse Errors,Pitch,Pitch Rate,Pos Variance,RC voltage,Roll,Roll Rate,SAirspeed,SAltitude,SAuto Mode,SECU Voltage,SFCS Mode,SGroundspeed,SHeading,SLatitude,SLongitude,SNav Mode,SOp Mode,SPitch,SRoll,Sensor 0 Current,Sensor 1 Current,Sensor 2 Current,Sensor 3 Current,Sensor 4 Current,Target East Vel,Target Heading,Target Lat,Target Lon,Target North Vel,TargetAltitude,TargetClimbRate,TargetPitch,TargetRoll,Total Current,Uptime,Vel Variance,Vel_D,Vel_E,Vel_N,X Acceleration,Y Acceleration,Yaw,Yaw Rate,Z Acceleration,altitude,auto_aileron,auto_elevator,auto_mode,auto_rudder,auto_throttle,char,code,dT,fcs_mode,heading,latitude,length,longitude,manual_aileron,manual_elevator,manual_rudder,manual_throttle,nav_mode,op_mode,predicted altitude,predicted heading,predicted latitude,predicted longitude,unknown
0.0000000,0.0000000,0.0000000,0.0000000,0.0000000,0.0000000,-3.4448822,0.0000000,0.0000000,0.0000000,0.0000000,0.0000000,0.0000000,0.0000000,0.0000000,0.0000000,0.0000000,0.0000000,0.0000000,0.0000000,0.0000000,0.0000000,0.0000000,0.0000000,0.0000000,0.0000000,0.0000000,0.0000000,0.0000000,0.0000000,0.0000000,0.0000000,0.0000000,0.0000000,0.0000000,0.0000000,0.0000000,0.0000000,0.0000000,0.0000000,0.0000000,0.0000000,0.1149923,0.0000000,0.0000000,0.0000000,-2.1689756,37.3358002,-77.2368088,0.0000000,0.0000000,0.0000000,0.0000000,0.0000000,0.0000000,0.0000000,0.0000000,0.0000000,0.0000000,0.0000000,0.0000000,0.0000000,0.0000000,0.0000000,0.3254719,0.0000000,0.0000000,0.0000000,-0.2210307,0.0000000,0.0000000,0.0000000,0.0000000,0.0000000,0.0000000,0.0000000,0.0000000,0.0000000,0.0000000,0.0000000,0.0000000,0.0000000,0.0000000,0.0000000,0.0000000,0.0000000,0.0000000,0.0000000,0.0000000,0.0000000,0.0000000,0.0000000,0.0000000,0.0000000,0.0000000,0.0000000,0.0000000,0.0000000,0.0000000,0.0000000,0.0188461,0.1110484,0.0298574,0.0000000,0.0000000,-2.1689756,0.0000000,0.0000000,0.0000000,0.0000000,0.0000000,0.0000000,0.0000000,0.0000000,0.0000000,0.0000000,0.0000000,0.0000000,0.0000000,0.0000000,0.0000000,0.0000000,0.0000000,0.0000000,0.0000000,0.0000000,0.0000000,0.0000000,0.0000000,0.0000000,0.0000000,0.0000000,0.0000000
0.0000000,0.0000000,0.0000000,0.0000000,0.0000000,0.0000000,-3.6089242,0.0000000,0.0000000,0.0000000,0.0000000,0.0000000,0.0000000,0.0000000,0.0000000,0.0000000,0.0000000,0.0000000,0.0000000,0.0000000,0.0000000,0.0000000,0.0000000,0.0000000,0.0000000,0.0000000,0.0000000,0.0000000,0.0000000,0.0000000,0.0000000,0.0000000,0.0000000,0.0000000,0.0000000,0.0000000,0.0000000,0.0000000,0.0000000,0.0000000,0.0000000,0.0000000,0.0935048,0.0000000,0.0000000,0.0000000,-2.6429672,37.3358002,-77.2368088,0.0000000,0.0000000,0.0000000,0.0000000,0.0000000,0.0000000,0.0000000,0.0000000,0.0000000,0.0000000,0.0000000,0.0000000,0.0000000,0.0000000,0.0000000,0.3147804,0.0000000,0.0000000,0.0000000,-0.2621053,0.0000000,0.0000000,0.0000000,0.0000000,0.0000000,0.0000000,0.0000000,0.0000000,0.0000000,0.0000000,0.0000000,0.0000000,0.0000000,0.0000000,0.0000000,0.0000000,0.0000000,0.0000000,0.0000000,0.0000000,0.0000000,0.0000000,0.0000000,0.0000000,0.0000000,0.0000000,0.0000000,0.0000000,0.0000000,0.0000000,0.0000000,0.0039036,0.0910259,0.0213873,0.0000000,0.0000000,-2.6429672,0.0000000,0.0000000,0.0000000,0.0000000,0.0000000,0.0000000,0.0000000,0.0000000,0.0000000,0.0000000,0.0000000,0.0000000,0.0000000,0.0000000,0.0000000,0.0000000,0.0000000,0.0000000,0.0000000,0.0000000,0.0000000,0.0000000,0.0000000,0.0000000,0.0000000,0.0000000,0.0000000
0.0019669,0.0022985,0.0037958,0.0000000,0.0000000,0.0000000,-3.7729661,0.0000000,0.0035419,0.0000000,0.0000000,0.4082668,96.1484222,16.3839054,8.3303614,0.0000000,0.0000000,0.0000000,0.0000000,0.0000000,20.7631645,0.0000000,0.0000000,0.0000000,0.0000000,0.0000000,0.0000000,0.0000000,0.0000000,4.9729667,140.0940399,0.0000000,3.0000000,0.0000000,0.0000000,0.0000000,0.0000000,0.0000000,0.0000000,0.0000000,0.0000000,0.0000000,0.0823461,0.0460065,0.0392597,0.0393821,-3.0837312,37.3358002,-77.2368088,7.0000000,0.0000000,0.0000000,0.0000000,0.0051454,0.0000000,0.0000000,0.0035336,-1.0000000,-1.0000000,-1.0000000,-1.0000000,-0.0142180,-1.0000000,0.0000000,0.3206082,-0.0183539,1.0000000,0.0212747,-0.2165616,-0.7947912,0.0000000,0.0000000,0.0000000,0.0000000,0.0000000,0.0000000,0.0000000,0.0000000,0.0000000,0.0000000,0.0000000,0.0000000,0.0000000,0.7881491,0.0000000,0.0000000,0.0000000,0.0000000,0.0000000,0.0000000,0.0000000,0.0000000,0.0000000,400.0000000,-0.8094102,1.9470522,0.0000000,0.7881491,105.8555222,0.0000000,0.0022178,0.0819870,0.0076820,0.0540545,-0.0559443,-3.0837312,-0.5213429,0.9497812,-3.5104988,1620.0000000,1543.0000000,0.0000000,1512.0000000,1025.0000000,0.0000000,0.0000000,0.0100000,0.0000000,-2.3497896,37.3358002,0.0000000,-77.2368088,1620.0000000,1543.0000000,1512.0000000,1047.0000000,0.0000000,0.0000000,0.0000000,357.9020081,0.0000000,0.0000000,0.0000000
0.0019872,0.0024182,0.0037663,0.0000000,0.0000000,0.0000000,-3.9370081,0.0000000,0.0035889,0.0000000,0.0000000,0.4084709,96.1464996,15.3847828,8.3346052,0.0000000,0.0000000,0.0000000,0.0000000,0.0000000,20.7878246,0.0000000,0.0000000,0.0000000,0.0000000,0.0000000,0.0000000,0.0000000,0.0000000,4.9357362,140.0940399,0.0000000,3.0000000,0.0000000,0.0000000,0.0000000,0.0000000,0.0000000,0.0000000,0.0000000,0.0000000,0.0000000,0.0728503,0.0469864,0.0404018,0.0383944,-3.5519826,37.3358002,-77.2368088,6.0000000,0.0000000,0.0000000,0.0000000,0.0051354,0.0000000,0.0000000,0.0035336,-1.0000000,-1.0000000,-1.0000000,-1.0000000,-0.0142180,-1.0000000,0.0000000,0.3172068,-0.0081042,1.0000000,0.0159560,-0.2392116,-0.2089200,0.0000000,0.0000000,0.0000000,0.0000000,0.0000000,0.0000000,0.0000000,0.0000000,0.0000000,0.0000000,0.0000000,0.0000000,0.0000000,0.7396476,0.0000000,0.0000000,0.0000000,0.0000000,0.0000000,0.0000000,0.0000000,0.0000000,0.0000000,400.0000000,-0.8094102,1.9470522,0.0000000,0.7396476,106.8555222,1.0000000,-0.0014428,0.0726606,-0.0052547,0.0585818,-0.0545635,-3.5519826,-0.2671865,0.9509156,-3.6417325,1620.0000000,1543.0000000,0.0000000,1512.0000000,1025.0000000,0.0000000,0.0000000,0.0099940,0.0000000,-2.8083162,37.3358002,0.0000000,-77.2368088,1620.0000000,1543.0000000,1512.0000000,1047.0000000,0.0000000,0.0000000,0.0000000,357.4340515,0.0000000,0.0000000,0.0000000
0.0020210,0.0025369,0.0041210,0.0000000,0.0000000,0.0000000,-4.1338587,0.0000000,0.0038360,0.0000000,0.0000000,0.4086668,96.1446533,15.6369944,8.3386803,0.0000000,0.0000000,0.0000000,0.0000000,0.0000000,20.8001537,0.0000000,0.0000000,0.0000000,0.0000000,0.0000000,0.0000000,0.0000000,0.0000000,4.9463735,140.0940399,0.0000000,3.0000000,0.0000000,0.0000000,0.0000000,0.0000000,0.0000000,0.0000000,0.0000000,0.0000000,0.0000000,0.0589649,0.0474724,0.0413415,0.0375769,-3.9439826,37.3358002,-77.2368088,4.0000000,0.0000000,0.0000000,0.0000000,0.0051254,0.0000000,0.0000000,0.0035336,-1.0000000,-1.0000000,-1.0000000,-1.0000000,-0.0142180,-1.0000000,0.0000000,0.2880594,0.0548083,1.0000000,0.0212747,-0.3411039,-0.4683489,0.0000000,0.0000000,0.0000000,0.0000000,0.0000000,0.0000000,0.0000000,0.0000000,0.0000000,0.0000000,0.0000000,0.0000000,0.0000000,0.7517730,0.0000000,0.0000000,0.0000000,0.0000000,0.0000000,0.0000000,0.0000000,0.0000000,0.0000000,400.0000000,-0.8094102,1.9470522,0.0000000,0.7517730,107.8555374,1.0000000,-0.0042943,0.0580871,-0.0101365,0.0537644,-0.0548973,-3.9439826,-0.4395507,0.9499542,-3.8057745,1620.0000000,1543.0000000,0.0000000,1512.0000000,1025.0000000,0.0000000,0.0000000,0.0100060,0.0000000,-3.3017471,37.3358002,0.0000000,-77.2368088,1620.0000000,1543.0000000,1512.0000000,1047.0000000,0.0000000,0.0000000,0.0000000,356.9307556,0.0000000,0.0000000,0.0000000
0.0020606,0.0026638,0.0038972,0.0000000,0.0000000,0.0000000,-4.3307090,0.0000000,0.0036631,0.0000000,0.0000000,0.4088655,96.1427841,15.3847828,8.3428135,0.0000000,0.0000000,0.0000000,0.0000000,0.0000000,20.8124828,0.0000000,0.0000000,0.0000000,0.0000000,0.0000000,0.0000000,0.0000000,0.0000000,4.9729667,140.0940399,0.0000000,3.0000000,0.0000000,0.0000000,0.0000000,0.0000000,0.0000000,0.0000000,0.0000000,0.0000000,0.0000000,0.0560102,0.0534498,0.0380388,0.0371979,-4.3891058,37.3358002,-77.2368088,3.0000000,0.0000000,0.0000000,0.0000000,0.0052037,0.0000000,0.0000000,0.0035336,-1.0000000,-1.0000000,-1.0000000,-1.0000000,-0.0142180,-1.0000000,0.0000000,0.2903759,-0.1757535,1.0000000,0.0212747,-0.3560959,0.1109092,0.0000000,0.0000000,0.0000000,0.0000000,0.0000000,0.0000000,0.0000000,0.0000000,0.0000000,0.0000000,0.0000000,0.0000000,0.0000000,0.7396476,0.0000000,0.0000000,0.0000000,0.0000000,0.0000000,0.0000000,0.0000000,0.0000000,0.0000000,400.0000000,-0.8094102,1.9470522,0.0000000,0.7396476,108.8555222,0.0000000,-0.0017656,0.0557640,-0.0052454,0.0532320,-0.0526492,-4.3891058,0.5575243,0.9501572,-3.9698164,1620.0000000,1543.0000000,0.0000000,1512.0000000,1025.0000000,0.0000000,0.0000000,0.0100000,0.0000000,-3.7119744,37.3358002,0.0000000,-77.2368088,1620.0000000,1543.0000000,1512.0000000,1047.0000000,0.0000000,0.0000000,0.0000000,356.5359497,0.0000000,0.0000000,0.0000000
0.0021359,0.0025660,0.0039765,0.0000000,0.0000000,0.0000000,-4.4619427,0.0000000,0.0035271,0.0000000,0.0000000,0.4090604,96.1409378,15.8986206,8.3468714,0.0000000,0.0000000,0.0000000,0.0000000,0.0000000,20.8248138,0.0000000,0.0000000,0.0000000,0.0000000,0.0000000,0.0000000,0.0000000,0.0000000,4.9463735,140.0940399,0.0000000,3.0000000,0.0000000,0.0000000,0.0000000,0.0000000,0.0000000,0.0000000,0.0000000,0.0000000,0.0000000,0.0431455,0.0502073,0.0400656,0.0415200,-4.7972217,37.3358002,-77.2368088,3.0000000,0.0000000,0.0000000,0.0000000,0.0051937,0.0000000,0.0000000,0.0035336,-1.0000000,-1.0000000,-1.0000000,-1.0000000,-0.0142180,-1.0000000,0.0000000,0.3047240,-0.1630525,1.0000000,0.0159560,-0.3243832,0.7062721,0.0000000,0.0000000,0.0000000,0.0000000,0.0000000,0.0000000,0.0000000,0.0000000,0.0000000,0.0000000,0.0000000,0.0000000,0.0000000,0.7638983,0.0000000,0.0000000,0.0000000,0.0000000,0.0000000,0.0000000,0.0000000,0.0000000,0.0000000,400.0000000,-0.8094102,1.9470522,0.0000000,0.7638983,109.8555222,1.0000000,-0.0154152,0.0431455,-0.0000394,0.0594783,-0.0493276,-4.7972217,0.4949108,0.9529226,-4.1666670,1620.0000000,1543.0000000,0.0000000,1512.0000000,1025.0000000,0.0000000,0.0000000,0.0100000,0.0000000,-4.1169276,37.3358002,0.0000000,-77.2368088,1620.0000000,1543.0000000,1512.0000000,1047.0000000,0.0000000,0.0000000,0.0000000,356.1194763,0.0000000,0.0000000,0.0000000
0.0021203,0.0025924,0.0037995,0.0000000,0.0000000,0.0000000,-4.5603676,0.0000000,0.0034981,0.0000000,0.0000000,0.4092535,96.1391220,15.3939018,8.3508892,0.0000000,0.0000000,0.0000000,0.0000000,0.0000000,20.8001537,0.0000000,0.0000000,0.0000000,0.0000000,0.0000000,0.0000000,0.0000000,0.0000000,4.9250989,140.0940399,0.0000000,3.0000000,0.0000000,0.0000000,0.0000000,0.0000000,0.0000000,0.0000000,0.0000000,0.0000000,0.0000000,0.0350594,0.0529936,0.0393151,0.0380900,-5.2299681,37.3358002,-77.2368088,2.0000000,0.0000000,0.0000000,0.0000000,0.0051837,0.0000000,0.0000000,0.0035336,-1.0000000,-1.0000000,-1.0000000,-1.0000000,-0.0142180,-1.0000000,0.0000000,0.3235480,-0.2741118,1.0000000,0.0212747,-0.4540344,-0.0229411,0.0000000,0.0000000,0.0000000,0.0000000,0.0000000,0.0000000,0.0000000,0.0000000,0.0000000,0.0000000,0.0000000,0.0000000,0.0000000,0.7396476,0.0000000,0.0000000,0.0000000,0.0000000,0.0000000,0.0000000,0.0000000,0.0000000,0.0000000,400.0000000,-0.8094102,1.9470522,0.0000000,0.7396476,110.8555222,1.0000000,-0.0169772,0.0340741,0.0082534,0.0555809,-0.0516433,-5.2299681,0.9787779,0.9523277,-4.3307090,1620.0000000,1543.0000000,0.0000000,1512.0000000,1025.0000000,0.0000000,0.0000000,0.0100000,0.0000000,-4.4648757,37.3358002,0.0000000,-77.2368088,1620.0000000,1543.0000000,1512.0000000,1047.0000000,0.0000000,0.0000000,0.0000000,355.7700195,0.0000000,0.0000000,0.0000000
0.0020647,0.0024925,0.0036746,0.0000000,0.0000000,1.0000000,-4.6259847,0.0000000,0.0036331,0.0000000,0.0000000,0.4094530,96.1372375,15.3939018,8.3550425,0.0000000,0.0000000,0.0000000,0.0000000,0.0000000,20.8124828,0.0000000,0.0000000,0.0000000,0.0000000,0.0000000,0.0000000,0.0000000,0.0000000,4.8719120,140.0940399,0.0000000,3.0000000,0.0000000,0.0000000,0.0000000,0.0000000,0.0000000,0.0000000,0.0000000,0.0000000,0.0000000,0.0260214,0.0511680,0.0412650,0.0408759,-5.5169735,37.3358002,-77.2368011,2.0000000,0.0000000,0.0000000,0.0000000,0.0051737,0.0000000,0.0000000,0.0035336,-1.0000000,-1.0000000,-1.0000000,-1.0000000,-0.0142180,-1.0000000,0.0000000,0.3096404,0.0119834,1.0000000,0.0212747,-0.3959840,-0.3317953,0.0000000,0.0000000,0.0000000,0.0000000,0.0000000,0.0000000,0.0000000,0.0000000,0.0000000,0.0000000,0.0000000,0.0000000,0.0000000,0.7396476,0.0000000,0.0000000,0.0000000,0.0000000,0.0000000,0.0000000,0.0000000,0.0000000,0.0000000,400.0000000,-0.8094102,1.9470522,0.0000000,0.7396476,111.8555222,0.0000000,-0.0285059,0.0235475,-0.0110737,0.0563067,-0.0495148,-5.5169735,-0.2285446,0.9510342,-4.4947510,1620.0000000,1543.0000000,0.0000000,1512.0000000,1025.0000000,0.0000000,0.0000000,0.0099920,0.0000000,-4.8491898,37.3358002,0.0000000,-77.2368088,1620.0000000,1543.0000000,1512.0000000,1047.0000000,0.0000000,0.0000000,0.0000000,355.3377686,0.0000000,0.0000000,0.0000000
0.0020341,0.0026348,0.0038890,0.0000000,0.0000000,1.0000000,-4.7572179,0.0000000,0.0037067,0.0000000,0.0000000,0.4096436,96.1354370,15.4121418,8.3590107,0.0000000,0.0000000,0.0000000,0.0000000,0.0000000,20.8124828,0.0000000,0.0000000,0.0000000,0.0000000,0.0000000,0.0000000,0.0000000,0.0000000,4.9463735,140.0940399,0.0000000,3.0000000,0.0000000,0.0000000,0.0000000,0.0000000,0.0000000,0.0000000,0.0000000,0.0000000,0.0000000,0.0173029,0.0525912,0.0396238,0.0397406,-5.8248682,37.3358002,-77.2368011,0.0000000,0.0000000,0.0000000,0.0000000,0.0051637,0.0000000,0.0000000,0.0035336,-1.0000000,-1.0000000,-1.0000000,-1.0000000,-0.0142180,-1.0000000,0.0000000,0.2981505,0.0347081,0.0000000,0.0212747,-0.3472590,-0.5363818,0.0000000,0.0000000,0.0000000,0.0000000,0.0000000,0.0000000,0.0000000,0.0000000,0.0000000,0.0000000,0.0000000,0.0000000,0.0000000,0.7396476,0.0000000,0.0000000,0.0000000,0.0000000,0.0000000,0.0000000,0.0000000,0.0000000,0.0000000,400.0000000,-0.8094102,1.9470522,0.0000000,0.7396476,112.8555222,1.0000000,-0.0266517,-0.0002095,-0.0173016,0.0569816,-0.0554378,-5.8248682,-0.0900441,0.9519148,-4.5603676,1620.0000000,1543.0000000,0.0000000,1512.0000000,1025.0000000,0.0000000,0.0000000,0.0099920,0.0000000,-5.2679329,37.3358002,0.0000000,-77.2368088,1620.0000000,1543.0000000,1512.0000000,1047.0000000,0.0000000,0.0000000,0.0000000,354.9257202,0.0000000,0.0000000,0.0000000
0.0019658,0.0025913,0.0038869,0.0000000,0.0000000,1.0000000,-4.8228350,0.0000000,0.0037201,0.0000000,0.0000000,0.4098483,96.1335068,15.1505156,8.3632727,0.0000000,0.0000000,0.0000000,0.0000000,0.0000000,20.8248138,0.0000000,0.0000000,0.0000000,0.0000000,0.0000000,0.0000000,0.0000000,0.0000000,4.9463735,140.1618652,0.0000000,3.0000000,0.0000000,0.0000000,0.0000000,0.0000000,0.0000000,0.0000000,0.0000000,0.0000000,0.0000000,0.0321652,0.0475558,0.0373196,0.0359047,-6.1080246,37.3358002,-77.2368011,0.0000000,0.0000000,0.0000000,0.0000000,0.0051536,0.0000000,0.0000000,0.0035336,-1.0000000,-1.0000000,-1.0000000,-1.0000000,-0.0142180,-1.0000000,0.0000000,0.2534284,0.0186317,0.0000000,0.0212747,-0.3460020,-0.4703948,0.0000000,0.0000000,0.0000000,0.0000000,0.0000000,0.0000000,0.0000000,0.0000000,0.0000000,0.0000000,0.0000000,0.0000000,0.0000000,0.7275223,0.0000000,0.0000000,0.0000000,0.0000000,0.0000000,0.0000000,0.0000000,0.0000000,0.0000000,400.0000000,-0.8094102,1.9470522,0.0000000,0.7275223,113.8555222,0.0000000,-0.0311872,-0.0230673,-0.0224166,0.0567474,-0.0543033,-6.1080246,-0.2569664,0.9515711,-4.6587930,1620.0000000,1543.0000000,0.0000000,1512.0000000,1025.0000000,0.0000000,0.0000000,0.0100000,0.0000000,-5.5583382,37.3358002,0.0000000,-77.2368011,1620.0000000,1543.0000000,1512.0000000,1047.0000000,0.0000000,0.0000000,0.0000000,354.6144409,0.0000000,0.0000000,0.0000000
0.0019545,0.0025505,0.0039947,0.0000000,0.0000000,0.0000000,-4.9212599,0.0000000,0.0035258,0.0000000,0.0000000,0.4100422,96.1316757,15.6555328,8.3673134,0.0000000,0.0000000,0.0000000,0.0000000,0.0000000,20.8371429,0.0000000,0.0000000,0.0000000,0.0000000,0.0000000,0.0000000,0.0000000,0.0000000,4.9729667,140.1618652,0.0000000,3.0000000,0.0000000,0.0000000,0.0000000,0.0000000,0.0000000,0.0000000,0.0000000,0.0000000,0.0000000,0.0382615,0.0467739,0.0387172,0.0370266,-6.4442105,37.3358002,-77.2368011,0.0000000,0.0000000,0.0000000,0.0000000,0.0051436,0.0000000,0.0000000,0.0035336,-1.0000000,-1.0000000,-1.0000000,-1.0000000,-0.0142180,-1.0000000,0.0000000,0.2454473,-0.0276855,0.0000000,0.0212747,-0.3530108,-0.3968568,0.0000000,0.0000000,0.0000000,0.0000000,0.0000000,0.0000000,0.0000000,0.0000000,0.0000000,0.0000000,0.0000000,0.0000000,0.0000000,0.7517730,0.0000000,0.0000000,0.0000000,0.0000000,0.0000000,0.0000000,0.0000000,0.0000000,0.0000000,400.0000000,-0.8094102,1.9470522,0.0000000,0.7517730,114.8555298,0.0000000,-0.0446241,-0.0324018,-0.0203486,0.0574632,-0.0553715,-6.4442105,0.0584179,0.9499345,-4.7572179,1620.0000000,1543.0000000,0.0000000,1512.0000000,1025.0000000,0.0000000,0.0000000,0.0099780,0.0000000,-5.9179883,37.3358002,0.0000000,-77.2368011,1620.0000000,1543.0000000,1512.0000000,1047.0000000,0.0000000,0.0000000,0.0000000,354.2605896,0.0000000,0.0000000,0.0000000
0.0019779,0.0025690,0.0041678,0.0000000,0.0000000,0.0000000,-5.0524936,0.0000000,0.0035398,0.0000000,0.0000000,0.4102484,96.1297302,15.6648016,8.3716116,0.0000000,0.0000000,0.0000000,0.0000000,0.0000000,20.8371429,0.0000000,0.0000000,0.0000000,0.0000000,0.0000000,0.0000000,0.0000000,0.0000000,4.9250989,140.1618652,0.0000000,3.0000000,0.0000000,0.0000000,0.0000000,0.0000000,0.0000000,0.0000000,0.0000000,0.0000000,0.0000000,0.0403037,0.0454704,0.0403711,0.0377509,-6.7614865,37.3358002,-77.2368088,0.0000000,0.0000000,0.0000000,0.0000000,0.0051336,0.0000000,0.0000000,0.0035336,-1.0000000,-1.0000000,-1.0000000,-1.0000000,-0.0142180,-1.0000000,0.0000000,0.2300687,0.0273956,0.0000000,0.0212747,-0.4248860,-0.0274938,0.0000000,0.0000000,0.0000000,0.0000000,0.0000000,0.0000000,0.0000000,0.0000000,0.0000000,0.0000000,0.0000000,0.0000000,0.0000000,0.7517730,0.0000000,0.0000000,0.0000000,0.0000000,0.0000000,0.0000000,0.0000000,0.0000000,0.0000000,400.0000000,-0.8094102,1.9470522,0.0000000,0.7517730,115.8555222,0.0000000,-0.0419036,-0.0378008,-0.0139817,0.0566080,-0.0545052,-6.7614865,-0.2410353,0.9500286,-4.8556433,1620.0000000,1543.0000000,0.0000000,1512.0000000,1025.0000000,0.0000000,0.0000000,0.0099740,0.0000000,-6.2127213,37.3358002,0.0000000,-77.2368011,1620.0000000,1543.0000000,1512.0000000,1047.0000000,0.0000000,0.0000000,0.0000000,353.9467163,0.0000000,0.0000000,0.0000000
0.0020282,0.0025029,0.0037777,0.0000000,0.0000000,1.0000000,-5.2493439,0.0000000,0.0035202,0.0000000,0.0000000,0.4104459,96.1278687,15.9174585,8.3757267,0.0000000,0.0000000,0.0000000,0.0000000,0.0000000,20.8371429,0.0000000,0.0000000,0.0000000,0.0000000,0.0000000,0.0000000,0.0000000,0.0000000,4.9729667,140.1618652,0.0000000,3.0000000,0.0000000,0.0000000,0.0000000,0.0000000,0.0000000,0.0000000,0.0000000,0.0000000,0.0000000,0.0321099,0.0452921,0.0399752,0.0356765,-6.9982538,37.3358002,-77.2368088,1.0000000,0.0000000,0.0000000,0.0000000,0.0051236,0.0000000,0.0000000,0.0035336,-1.0000000,-1.0000000,-1.0000000,-1.0000000,-0.0142180,-1.0000000,0.0000000,0.2435210,-0.0112138,0.0000000,0.0212747,-0.3357990,-0.7780066,0.0000000,0.0000000,0.0000000,0.0000000,0.0000000,0.0000000,0.0000000,0.0000000,0.0000000,0.0000000,0.0000000,0.0000000,0.0000000,0.7638983,0.0000000,0.0000000,0.0000000,0.0000000,0.0000000,0.0000000,0.0000000,0.0000000,0.0000000,400.0000000,-0.8094102,1.9470522,0.0000000,0.7638983,116.8555222,0.0000000,-0.0376711,-0.0284788,-0.0148325,0.0566909,-0.0556329,-6.9982538,-0.3925171,0.9494168,-4.9540687,1620.0000000,1543.0000000,0.0000000,1512.0000000,1025.0000000,0.0000000,0.0000000,0.0100000,0.0000000,-6.5334430,37.3358002,0.0000000,-77.2368011,1620.0000000,1543.0000000,1512.0000000,1047.0000000,0.0000000,0.0000000,0.0000000,353.6238708,0.0000000,0.0000000,0.0000000
0.0020695,0.0024003,0.0038764,0.0000000,0.0000000,1.0000000,-5.4133863,0.0000000,0.0036912,0.0000000,0.0000000,0.4106419,96.1260223,15.9268761,8.3798103,0.0000000,0.0000000,0.0000000,0.0000000,0.0000000,20.8371429,0.0000000,0.0000000,0.0000000,0.0000000,0.0000000,0.0000000,0.0000000,0.0000000,4.9304175,140.0940399,0.0000000,3.0000000,0.0000000,0.0000000,0.0000000,0.0000000,0.0000000,0.0000000,0.0000000,0.0000000,0.0000000,0.0314859,0.0464624,0.0371002,0.0356608,-7.2349391,37.3358002,-77.2368088,2.0000000,0.0000000,0.0000000,0.0000000,0.0051136,0.0000000,0.0000000,0.0035336,-1.0000000,-1.0000000,-1.0000000,-1.0000000,-0.0142180,-1.0000000,0.0000000,0.2494319,0.0024279,0.0000000,0.0212747,-0.3532110,-0.2780224,0.0000000,0.0000000,0.0000000,0.0000000,0.0000000,0.0000000,0.0000000,0.0000000,0.0000000,0.0000000,0.0000000,0.0000000,0.0000000,0.7638983,0.0000000,0.0000000,0.0000000,0.0000000,0.0000000,0.0000000,0.0000000,0.0000000,0.0000000,400.0000000,-0.8094102,1.9470522,0.0000000,0.7638983,117.8555298,0.0000000,-0.0363000,-0.0156474,-0.0273225,0.0557966,-0.0537143,-7.2349391,-0.1819035,0.9478275,-5.0853019,1620.0000000,1543.0000000,0.0000000,1512.0000000,1025.0000000,0.0000000,0.0000000,0.0099950,0.0000000,-6.8013821,37.3358002,0.0000000,-77.2368088,1620.0000000,1543.0000000,1512.0000000,1047.0000000,0.0000000,0.0000000,0.0000000,353.3408203,0.0000000,0.0000000,0.0000000
0.0020228,0.0024048,0.0038612,0.0000000,0.0000000,0.0000000,-5.5118113,0.0000000,0.0037528,0.0000000,0.0000000,0.4108474,96.1240845,15.6648016,8.3840942,0.0000000,0.0000000,0.0000000,0.0000000,0.0000000,20.8371429,0.0000000,0.0000000,0.0000000,0.0000000,0.0000000,0.0000000,0.0000000,0.0000000,4.9516921,140.0940399,0.0000000,3.0000000,0.0000000,0.0000000,0.0000000,0.0000000,0.0000000,0.0000000,0.0000000,0.0000000,0.0000000,0.0515933,0.0477798,0.0415320,0.0396498,-7.5154047,37.3358002,-77.2368088,2.0000000,0.0000000,0.0000000,0.0000000,0.0051036,0.0000000,0.0000000,0.0035336,-1.0000000,-1.0000000,-1.0000000,-1.0000000,-0.0142180,-1.0000000,0.0000000,0.2126421,-0.0089356,0.0000000,0.0159560,-0.3795214,0.2038080,0.0000000,0.0000000,0.0000000,0.0000000,0.0000000,0.0000000,0.0000000,0.0000000,0.0000000,0.0000000,0.0000000,0.0000000,0.0000000,0.7517730,0.0000000,0.0000000,0.0000000,0.0000000,0.0000000,0.0000000,0.0000000,0.0000000,0.0000000,400.0000000,-0.8094102,1.9470522,0.0000000,0.7517730,118.8555298,0.0000000,-0.0411072,-0.0154327,-0.0492311,0.0541692,-0.0587689,-7.5154047,-0.1872106,0.9469260,-5.2821527,1620.0000000,1543.0000000,0.0000000,1512.0000000,1025.0000000,0.0000000,0.0000000,0.0100080,0.0000000,-7.1366644,37.3358002,0.0000000,-77.2368088,1620.0000000,1543.0000000,1512.0000000,1047.0000000,0.0000000,0.0000000,0.0000000,353.0006409,0.0000000,0.0000000,0.0000000
0.0019849,0.0025184,0.0038709,0.0000000,0.0000000,0.0000000,-5.6758533,0.0000000,0.0035185,0.0000000,0.0000000,0.4110438,96.1222305,15.9268761,8.3881855,0.0000000,0.0000000,0.0000000,0.0000000,0.0000000,20.8494720,0.0000000,0.0000000,0.0000000,0.0000000,0.0000000,0.0000000,0.0000000,0.0000000,4.9570107,140.0940399,0.0000000,3.0000000,0.0000000,0.0000000,0.0000000,0.0000000,0.0000000,0.0000000,0.0000000,0.0000000,0.0000000,0.0442468,0.0460876,0.0390829,0.0392191,-7.7353363,37.3358002,-77.2368088,2.0000000,0.0000000,0.0000000,0.0000000,0.0050936,0.0000000,0.0000000,0.0035336,-1.0000000,-1.0000000,-1.0000000,-1.0000000,-0.0142180,-1.0000000,0.0000000,0.2015593,-0.0263164,0.0000000,0.0159560,-0.4190225,0.1341348,0.0000000,0.0000000,0.0000000,0.0000000,0.0000000,0.0000000,0.0000000,0.0000000,0.0000000,0.0000000,0.0000000,0.0000000,0.0000000,0.7638983,0.0000000,0.0000000,0.0000000,0.0000000,0.0000000,0.0000000,0.0000000,0.0000000,0.0000000,400.0000000,-0.8094102,1.9470522,0.0000000,0.7638983,119.8555222,0.0000000,-0.0309039,-0.0088940,-0.0433437,0.0561870,-0.0516964,-7.7353363,0.2154578,0.9503797,-5.4133863,1620.0000000,1543.0000000,0.0000000,1512.0000000,1025.0000000,0.0000000,0.0000000,0.0100000,0.0000000,-7.3435040,37.3358002,0.0000000,-77.2368088,1620.0000000,1543.0000000,1512.0000000,1047.0000000,0.0000000,0.0000000,0.0000000,352.8070374,0.0000000,0.0000000,0.0000000
0.0020594,0.0027779,0.0038202,0.0000000,0.0000000,0.0000000,-5.8727036,0.0000000,0.0034826,0.0000000,0.0000000,0.4112512,96.1202774,15.6740704,8.3925066,0.0000000,0.0000000,0.0000000,0.0000000,0.0000000,20.8371429,0.0000000,0.0000000,0.0000000,0.0000000,0.0000000,0.0000000,0.0000000,0.0000000,4.9836040,140.0940399,0.0000000,3.0000000,0.0000000,0.0000000,0.0000000,0.0000000,0.0000000,0.0000000,0.0000000,0.0000000,0.0000000,0.0289180,0.0478888,0.0390164,0.0376682,-7.9424515,37.3358002,-77.2368088,3.0000000,0.0000000,0.0000000,0.0000000,0.0050836,0.0000000,0.0000000,0.0035336,-1.0000000,-1.0000000,-1.0000000,-1.0000000,-0.0142180,-1.0000000,0.0000000,0.2473433,0.0485674,0.0000000,0.0159560,-0.3723439,0.1566956,0.0000000,0.0000000,0.0000000,0.0000000,0.0000000,0.0000000,0.0000000,0.0000000,0.0000000,0.0000000,0.0000000,0.0000000,0.0000000,0.7517730,0.0000000,0.0000000,0.0000000,0.0000000,0.0000000,0.0000000,0.0000000,0.0000000,0.0000000,400.0000000,-0.8094102,1.9470522,0.0000000,0.7517730,120.8555222,1.0000000,-0.0289355,-0.0021107,-0.0288408,0.0575543,-0.0504168,-7.9424515,0.2025747,0.9503277,-5.5446196,1620.0000000,1543.0000000,0.0000000,1512.0000000,1025.0000000,0.0000000,0.0000000,0.0100000,0.0000000,-7.5739141,37.3358002,0.0000000,-77.2368088,1620.0000000,1543.0000000,1512.0000000,1047.0000000,0.0000000,0.0000000,0.0000000,352.5708008,0.0000000,0.0000000,0.0000000
0.0019936,0.0024936,0.0038760,0.0000000,0.0000000,0.0000000,-6.0367455,0.0000000,0.0037278,0.0000000,0.0000000,0.4114460,96.1184311,15.6740704,8.3965702,0.0000000,0.0000000,0.0000000,0.0000000,0.0000000,20.8371429,0.0000000,0.0000000,0.0000000,0.0000000,0.0000000,0.0000000,0.0000000,0.0000000,4.9676480,140.0940399,0.0000000,3.0000000,0.0000000,0.0000000,0.0000000,0.0000000,0.0000000,0.0000000,0.0000000,0.0000000,0.0000000,0.0267197,0.0505139,0.0383776,0.0388806,-8.1584749,37.3358002,-77.2368088,4.0000000,0.0000000,0.0000000,0.0000000,0.0050735,0.0000000,0.0000000,0.0035336,-1.0000000,-1.0000000,-1.0000000,-1.0000000,-0.0142180,-1.0000000,0.0000000,0.2526132,0.2232760,0.0000000,0.0159560,-0.3818270,0.0463797,0.0000000,0.0000000,0.0000000,0.0000000,0.0000000,0.0000000,0.0000000,0.0000000,0.0000000,0.0000000,0.0000000,0.0000000,0.0000000,0.7517730,0.0000000,0.0000000,0.0000000,0.0000000,0.0000000,0.0000000,0.0000000,0.0000000,0.0000000,400.0000000,-0.8094102,1.9470522,0.0000000,0.7517730,121.8555298,1.0000000,-0.0350955,-0.0080161,-0.0254889,0.0563056,-0.0584183,-8.1584749,-0.5392021,0.9492024,-5.7414703,1620.0000000,1543.0000000,0.0000000,1512.0000000,1025.0000000,0.0000000,0.0000000,0.0100000,0.0000000,-7.8536329,37.3358002,0.0000000,-77.2368088,1620.0000000,1543.0000000,1512.0000000,1047.0000000,0.0000000,0.0000000,0.0000000,352.2730103,0.0000000,0.0000000,0.0000000
0.0020215,0.0025333,0.0039648,0.0000000,0.0000000,0.0000000,-6.2992129,0.0000000,0.0036368,0.0000000,0.0000000,0.4116425,96.1165771,15.6740704,8.4006653,0.0000000,0.0000000,0.0000000,0.0000000,0.0000000,20.8371429,0.0000000,0.0000000,0.0000000,0.0000000,0.0000000,0.0000000,0.0000000,0.0000000,4.9197803,140.0940399,0.0000000,3.0000000,0.0000000,0.0000000,0.0000000,0.0000000,0.0000000,0.0000000,0.0000000,0.0000000,0.0000000,0.0184695,0.0486683,0.0390123,0.0370993,-8.3670902,37.3358002,-77.2368088,5.0000000,0.0000000,0.0000000,0.0000000,0.0050635,0.0000000,0.0000000,0.0035336,-1.0000000,-1.0000000,-1.0000000,-1.0000000,-0.0142180,-1.0000000,0.0000000,0.2638265,-0.0811477,0.0000000,0.0159560,-0.3905515,0.8963533,0.0000000,0.0000000,0.0000000,0.0000000,0.0000000,0.0000000,0.0000000,0.0000000,0.0000000,0.0000000,0.0000000,0.0000000,0.0000000,0.7517730,0.0000000,0.0000000,0.0000000,0.0000000,0.0000000,0.0000000,0.0000000,0.0000000,0.0000000,400.0000000,-0.8094102,1.9470522,0.0000000,0.7517730,122.8555222,0.0000000,-0.0246969,0.0020546,-0.0183549,0.0564590,-0.0538598,-8.3670902,0.4331596,0.9515808,-5.9055123,1620.0000000,1543.0000000,0.0000000,1512.0000000,1025.0000000,0.0000000,0.0000000,0.0100000,0.0000000,-8.0459843,37.3358002,0.0000000,-77.2368088,1620.0000000,1543.0000000,1512.0000000,1047.0000000,0.0000000,0.0000000,0.0000000,352.0833435,0.0000000,0.0000000,0.0000000
0.0018403,0.0023582,0.0038274,0.0000000,0.0000000,0.0000000,-6.5288715,0.0000000,0.0036507,0.0000000,0.0000000,0.4118514,96.1146088,15.6648016,8.4050188,0.0000000,0.0000000,0.0000000,0.0000000,0.0000000,20.8494720,0.0000000,0.0000000,0.0000000,0.0000000,0.0000000,0.0000000,0.0000000,0.0000000,4.9570107,140.0940399,0.0000000,3.0000000,0.0000000,0.0000000,0.0000000,0.0000000,0.0000000,0.0000000,0.0000000,0.0000000,0.0000000,0.0238003,0.0419371,0.0391751,0.0368114,-8.5556993,37.3358002,-77.2368011,6.0000000,0.0000000,0.0000000,0.0000000,0.0050535,0.0000000,0.0000000,0.0035336,-1.0000000,-1.0000000,-1.0000000,-1.0000000,-0.0142180,-1.0000000,0.0000000,0.2393230,-0.0603746,0.0000000,0.0159560,-0.3696643,-0.6075078,0.0000000,0.0000000,0.0000000,0.0000000,0.0000000,0.0000000,0.0000000,0.0000000,0.0000000,0.0000000,0.0000000,0.0000000,0.0000000,0.7517730,0.0000000,0.0000000,0.0000000,0.0000000,0.0000000,0.0000000,0.0000000,0.0000000,0.0000000,400.0000000,-0.8094102,1.9470522,0.0000000,0.7517730,123.8555222,0.0000000,-0.0269798,0.0185348,-0.0149305,0.0552261,-0.0540843,-8.5556993,-0.2733223,0.9499652,-6.1023626,1620.0000000,1543.0000000,0.0000000,1512.0000000,1025.0000000,0.0000000,0.0000000,0.0100000,0.0000000,-8.1998882,37.3358002,0.0000000,-77.2368088,1620.0000000,1543.0000000,1512.0000000,1047.0000000,0.0000000,0.0000000,0.0000000,351.9169922,0.0000000,0.0000000,0.0000000
0.0019775,0.0024022,0.0036754,0.0000000,0.0000000,0.0000000,-6.6601052,0.0000000,0.0034736,0.0000000,0.0000000,0.4120467,96.1127625,15.6740704,8.4090900,0.0000000,0.0000000,0.0000000,0.0000000,0.0000000,20.8494720,0.0000000,0.0000000,0.0000000,0.0000000,0.0000000,0.0000000,0.0000000,0.0000000,4.9463735,140.0940399,0.0000000,3.0000000,0.0000000,0.0000000,0.0000000,0.0000000,0.0000000,0.0000000,0.0000000,0.0000000,0.0000000,0.0271997,0.0427375,0.0345462,0.0373024,-8.6977196,37.3358002,-77.2368011,5.0000000,0.0000000,0.0000000,0.0000000,0.0050435,0.0000000,0.0000000,0.0035336,-1.0000000,-1.0000000,-1.0000000,-1.0000000,-0.0142180,-1.0000000,0.0000000,0.2149546,-0.0003162,0.0000000,0.0212747,-0.2818631,-0.0350926,0.0000000,0.0000000,0.0000000,0.0000000,0.0000000,0.0000000,0.0000000,0.0000000,0.0000000,0.0000000,0.0000000,0.0000000,0.0000000,0.7517730,0.0000000,0.0000000,0.0000000,0.0000000,0.0000000,0.0000000,0.0000000,0.0000000,0.0000000,400.0000000,-0.8094102,1.9470522,0.0000000,0.7517730,124.8555222,0.0000000,-0.0238312,0.0266171,-0.0055993,0.0563717,-0.0549635,-8.6977196,-0.0251960,0.9490220,-6.3320212,1620.0000000,1543.0000000,0.0000000,1512.0000000,1025.0000000,0.0000000,0.0000000,0.0100000,0.0000000,-8.4337654,37.3358002,0.0000000,-77.2368088,1620.0000000,1543.0000000,1512.0000000,1047.0000000,0.0000000,0.0000000,0.0000000,351.6870117,0.0000000,0.0000000,0.0000000
0.0020052,0.0023493,0.0038630,0.0000000,0.0000000,1.0000000,-6.8241472,0.0000000,0.0035751,0.0000000,0.0000000,0.4122434,96.1109085,15.6740704,8.4131880,0.0000000,0.0000000,0.0000000,0.0000000,0.0000000,20.8494720,0.0000000,0.0000000,0.0000000,0.0000000,0.0000000,0.0000000,0.0000000,0.0000000,4.9410548,140.1618652,0.0000000,3.0000000,0.0000000,0.0000000,0.0000000,0.0000000,0.0000000,0.0000000,0.0000000,0.0000000,0.0000000,0.0323304,0.0431361,0.0381320,0.0357440,-8.8923855,37.3358002,-77.2368011,5.0000000,0.0000000,0.0000000,0.0000000,0.0050335,0.0000000,0.0000000,0.0035336,-1.0000000,-1.0000000,-1.0000000,-1.0000000,-0.0142180,-1.0000000,0.0000000,0.2091476,-0.0740691,0.0000000,0.0212747,-0.3455676,-0.1729104,0.0000000,0.0000000,0.0000000,0.0000000,0.0000000,0.0000000,0.0000000,0.0000000,0.0000000,0.0000000,0.0000000,0.0000000,0.0000000,0.7517730,0.0000000,0.0000000,0.0000000,0.0000000,0.0000000,0.0000000,0.0000000,0.0000000,0.0000000,400.0000000,-0.8094102,1.9470522,0.0000000,0.7517730,125.8555222,0.0000000,-0.0366917,0.0321317,0.0035791,0.0552579,-0.0530817,-8.8923855,0.1385051,0.9501086,-6.5288715,1620.0000000,1543.0000000,0.0000000,1512.0000000,1025.0000000,0.0000000,0.0000000,0.0100000,0.0000000,-8.5819778,37.3358002,0.0000000,-77.2368011,1620.0000000,1543.0000000,1512.0000000,1047.0000000,0.0000000,0.0000000,0.0000000,351.5334473,0.0000000,0.0000000,0.0000000
0.0019700,0.0024333,0.0038969,0.0000000,0.0000000,1.0000000,-6.9881892,0.0000000,0.0037073,0.0000000,0.0000000,0.4124479,96.1089859,15.6740704,8.4174500,0.0000000,0.0000000,0.0000000,0.0000000,0.0000000,20.8494720,0.0000000,0.0000000,0.0000000,0.0000000,0.0000000,0.0000000,0.0000000,0.0000000,4.9410548,140.1618652,0.0000000,3.0000000,0.0000000,0.0000000,0.0000000,0.0000000,0.0000000,0.0000000,0.0000000,0.0000000,0.0000000,0.0419152,0.0409792,0.0418069,0.0373075,-9.0535831,37.3358002,-77.2368011,5.0000000,0.0000000,0.0000000,0.0000000,0.0050235,0.0000000,0.0000000,0.0035336,-1.0000000,-1.0000000,-1.0000000,-1.0000000,-0.0142180,-1.0000000,0.0000000,0.1817710,-0.0150787,0.0000000,0.0212747,-0.3717189,-0.7612517,0.0000000,0.0000000,0.0000000,0.0000000,0.0000000,0.0000000,0.0000000,0.0000000,0.0000000,0.0000000,0.0000000,0.0000000,0.0000000,0.7517730,0.0000000,0.0000000,0.0000000,0.0000000,0.0000000,0.0000000,0.0000000,0.0000000,0.0000000,400.0000000,-0.8094102,1.9470522,0.0000000,0.7517730,126.8555222,0.0000000,-0.0373459,0.0417294,0.0039422,0.0544260,-0.0527916,-9.0535831,-0.2443663,0.9480762,-6.6929135,1620.0000000,1543.0000000,0.0000000,1512.0000000,1025.0000000,0.0000000,0.0000000,0.0099910,0.0000000,-8.7482033,37.3358002,0.0000000,-77.2368011,1620.0000000,1543.0000000,1512.0000000,1047.0000000,0.0000000,0.0000000,0.0000000,351.3526917,0.0000000,0.0000000,0.0000000
0.0019902,0.0023724,0.0036300,0.0000000,0.0000000,0.0000000,-7.0538063,0.0000000,0.0036439,0.0000000,0.0000000,0.4126419,96.1071472,15.6740704,8.4214964,0.0000000,0.0000000,0.0000000,0.0000000,0.0000000,20.8494720,0.0000000,0.0000000,0.0000000,0.0000000,0.0000000,0.0000000,0.0000000,0.0000000,4.9570107,140.1618652,0.0000000,3.0000000,0.0000000,0.0000000,0.0000000,0.0000000,0.0000000,0.0000000,0.0000000,0.0000000,0.0000000,0.0221928,0.0397193,0.0406134,0.0396886,-9.1754255,37.3358002,-77.2368011,6.0000000,0.0000000,0.0000000,0.0000000,0.0050135,0.0000000,0.0000000,0.0035336,-1.0000000,-1.0000000,-1.0000000,-1.0000000,-0.0142180,-1.0000000,0.0000000,0.2252656,-0.0704674,0.0000000,0.0159560,-0.3727891,0.0737134,0.0000000,0.0000000,0.0000000,0.0000000,0.0000000,0.0000000,0.0000000,0.0000000,0.0000000,0.0000000,0.0000000,0.0000000,0.0000000,0.7517730,0.0000000,0.0000000,0.0000000,0.0000000,0.0000000,0.0000000,0.0000000,0.0000000,0.0000000,400.0000000,-0.8094102,1.9470522,0.0000000,0.7517730,127.8555374,0.0000000,-0.0412637,0.0205009,0.0084992,0.0555382,-0.0545176,-9.1754255,0.0189051,0.9509768,-6.8241472,1620.0000000,1543.0000000,0.0000000,1512.0000000,1025.0000000,0.0000000,0.0000000,0.0100130,0.0000000,-8.9381504,37.3358002,0.0000000,-77.2368011,1620.0000000,1543.0000000,1512.0000000,1047.0000000,0.0000000,0.0000000,0.0000000,351.1634521,0.0000000,0.0000000,0.0000000
0.0020492,0.0023122,0.0038674,0.0000000,0.0000000,0.0000000,-7.2506566,0.0000000,0.0037133,0.0000000,0.0000000,0.4128468,96.1052170,15.6740704,8.4257689,0.0000000,0.0000000,0.0000000,0.0000000,0.0000000,20.8371429,0.0000000,0.0000000,0.0000000,0.0000000,0.0000000,0.0000000,0.0000000,0.0000000,4.9038243,140.1618652,0.0000000,3.0000000,0.0000000,0.0000000,0.0000000,0.0000000,0.0000000,0.0000000,0.0000000,0.0000000,0.0000000,0.0308824,0.0411003,0.0388789,0.0389370,-9.3658552,37.3358002,-77.2368011,7.0000000,0.0000000,0.0000000,0.0000000,0.0050035,0.0000000,0.0000000,0.0035336,-1.0000000,-1.0000000,-1.0000000,-1.0000000,-0.0142180,-1.0000000,0.0000000,0.2313300,-0.0492519,0.0000000,0.0159560,-0.3993620,0.2047234,0.0000000,0.0000000,0.0000000,0.0000000,0.0000000,0.0000000,0.0000000,0.0000000,0.0000000,0.0000000,0.0000000,0.0000000,0.0000000,0.7517730,0.0000000,0.0000000,0.0000000,0.0000000,0.0000000,0.0000000,0.0000000,0.0000000,0.0000000,400.0000000,-0.8094102,1.9470522,0.0000000,0.7517730,128.8555145,0.0000000,-0.0569291,0.0253061,0.0177009,0.0560908,-0.0528892,-9.3658552,0.1123688,0.9500508,-6.9881892,1620.0000000,1543.0000000,0.0000000,1512.0000000,1025.0000000,0.0000000,0.0000000,0.0100000,0.0000000,-9.1013508,37.3358002,0.0000000,-77.2368011,1620.0000000,1543.0000000,1512.0000000,1047.0000000,0.0000000,0.0000000,0.0000000,351.0045776,0.0000000,0.0000000,0.0000000
0.0020640,0.0024632,0.0036690,0.0000000,0.0000000,1.0000000,-7.2506566,0.0000000,0.0035636,0.0000000,0.0000000,0.4130401,96.1033936,15.6740704,8.4298019,0.0000000,0.0000000,0.0000000,0.0000000,0.0000000,20.8494720,0.0000000,0.0000000,0.0000000,0.0000000,0.0000000,0.0000000,0.0000000,0.0000000,4.8825493,140.1618652,0.0000000,3.0000000,0.0000000,0.0000000,0.0000000,0.0000000,0.0000000,0.0000000,0.0000000,0.0000000,0.0000000,0.0415038,0.0424538,0.0372268,0.0374769,-9.4426889,37.3358002,-77.2368011,7.0000000,0.0000000,0.0000000,0.0000000,0.0049935,0.0000000,0.0000000,0.0035336,-1.0000000,-1.0000000,-1.0000000,-1.0000000,-0.0142180,-1.0000000,0.0000000,0.2016607,-0.0756446,0.0000000,0.0159560,-0.3352327,0.5158221,0.0000000,0.0000000,0.0000000,0.0000000,0.0000000,0.0000000,0.0000000,0.0000000,0.0000000,0.0000000,0.0000000,0.0000000,0.0000000,0.7517730,0.0000000,0.0000000,0.0000000,0.0000000,0.0000000,0.0000000,0.0000000,0.0000000,0.0000000,400.0000000,-0.8094102,1.9470522,0.0000000,0.7517730,129.8555145,1.0000000,-0.0687711,0.0339526,0.0238702,0.0544191,-0.0544855,-9.4426889,0.4783144,0.9507400,-7.0866146,1620.0000000,1543.0000000,0.0000000,1512.0000000,1025.0000000,0.0000000,0.0000000,0.0100010,0.0000000,-9.2629232,37.3358002,0.0000000,-77.2368011,1620.0000000,1543.0000000,1512.0000000,1047.0000000,0.0000000,0.0000000,0.0000000,350.8517151,0.0000000,0.0000000,0.0000000
0.0019837,0.0024806,0.0037049,0.0000000,0.0000000,0.0000000,-7.4146986,0.0000000,0.0034254,0.0000000,0.0000000,0.4132429,96.1014786,15.6740704,8.4340296,0.0000000,0.0000000,0.0000000,0.0000000,0.0000000,20.8494720,0.0000000,0.0000000,0.0000000,0.0000000,0.0000000,0.0000000,0.0000000,0.0000000,4.9410548,140.1618652,0.0000000,3.0000000,0.0000000,0.0000000,0.0000000,0.0000000,0.0000000,0.0000000,0.0000000,0.0000000,0.0000000,0.0450692,0.0420136,0.0353717,0.0373800,-9.5566006,37.3358040,-77.2368011,7.0000000,0.0000000,0.0000000,0.0000000,0.0049834,0.0000000,0.0000000,0.0035336,-1.0000000,-1.0000000,-1.0000000,-1.0000000,-0.0142180,-1.0000000,0.0000000,0.2129888,-0.0184299,0.0000000,0.0212747,-0.3421662,-0.0650955,0.0000000,0.0000000,0.0000000,0.0000000,0.0000000,0.0000000,0.0000000,0.0000000,0.0000000,0.0000000,0.0000000,0.0000000,0.0000000,0.7517730,0.0000000,0.0000000,0.0000000,0.0000000,0.0000000,0.0000000,0.0000000,0.0000000,0.0000000,400.0000000,-0.8094102,1.9470522,0.0000000,0.7517730,130.8555298,1.0000000,-0.0626880,0.0372922,0.0253086,0.0579341,-0.0510775,-9.5566006,0.1224447,0.9501878,-7.2506566,1620.0000000,1543.0000000,0.0000000,1512.0000000,1025.0000000,0.0000000,0.0000000,0.0100010,0.0000000,-9.3476028,37.3358002,0.0000000,-77.2368011,1620.0000000,1543.0000000,1512.0000000,1047.0000000,0.0000000,0.0000000,0.0000000,350.7468872,0.0000000,0.0000000,0.0000000
0.0020082,0.0024576,0.0038361,0.0000000,0.0000000,1.0000000,-7.5459323,0.0000000,0.0037054,0.0000000,0.0000000,0.4134361,96.0996628,15.6740704,8.4380560,0.0000000,0.0000000,0.0000000,0.0000000,0.0000000,20.8618011,0.0000000,0.0000000,0.0000000,0.0000000,0.0000000,0.0000000,0.0000000,0.0000000,4.9038243,140.1618652,0.0000000,3.0000000,0.0000000,0.0000000,0.0000000,0.0000000,0.0000000,0.0000000,0.0000000,0.0000000,0.0000000,0.0427168,0.0444668,0.0379013,0.0395687,-9.7007694,37.3358040,-77.2368011,7.0000000,0.0000000,0.0000000,0.0000000,0.0049734,0.0000000,0.0000000,0.0035336,-1.0000000,-1.0000000,-1.0000000,-1.0000000,-0.0142180,-1.0000000,0.0000000,0.2194138,-0.0331895,0.0000000,0.0159560,-0.3659088,-0.1614002,0.0000000,0.0000000,0.0000000,0.0000000,0.0000000,0.0000000,0.0000000,0.0000000,0.0000000,0.0000000,0.0000000,0.0000000,0.0000000,0.7517730,0.0000000,0.0000000,0.0000000,0.0000000,0.0000000,0.0000000,0.0000000,0.0000000,0.0000000,400.0000000,-0.8094102,1.9470522,0.0000000,0.7517730,131.8555145,0.0000000,-0.0600510,0.0418469,0.0085766,0.0596867,-0.0520659,-9.7007694,-0.0747148,0.9487430,-7.2834649,1620.0000000,1543.0000000,0.0000000,1512.0000000,1025.0000000,0.0000000,0.0000000,0.0099920,0.0000000,-9.4574118,37.3358002,0.0000000,-77.2368011,1620.0000000,1543.0000000,1512.0000000,1047.0000000,0.0000000,0.0000000,0.0000000,350.6256104,0.0000000,0.0000000,0.0000000
0.0020113,0.0022463,0.0038055,0.0000000,0.0000000,0.0000000,-7.7099743,0.0000000,0.0036554,0.0000000,0.0000000,0.4136286,96.0978470,15.6833391,8.4420719,0.0000000,0.0000000,0.0000000,0.0000000,0.0000000,20.8618011,0.0000000,0.0000000,0.0000000,0.0000000,0.0000000,0.0000000,0.0000000,0.0000000,4.9570107,140.1974792,0.0000000,3.0000000,0.0000000,0.0000000,0.0000000,0.0000000,0.0000000,0.0000000,0.0000000,0.0000000,0.0000000,0.0586307,0.0440074,0.0404604,0.0382721,-9.8079357,37.3358040,-77.2368011,7.0000000,0.0000000,0.0000000,0.0000000,0.0049634,0.0000000,0.0000000,0.0035336,-1.0000000,-1.0000000,-1.0000000,-1.0000000,-0.0142180,-1.0000000,0.0000000,0.1851175,0.0335765,0.0000000,0.0212747,-0.3248107,-0.3742576,0.0000000,0.0000000,0.0000000,0.0000000,0.0000000,0.0000000,0.0000000,0.0000000,0.0000000,0.0000000,0.0000000,0.0000000,0.0000000,0.7517730,0.0000000,0.0000000,0.0000000,0.0000000,0.0000000,0.0000000,0.0000000,0.0000000,0.0000000,400.0000000,-0.8094102,1.9470522,0.0000000,0.7517730,132.8555145,0.0000000,-0.0597848,0.0562315,-0.0166006,0.0568189,-0.0543255,-9.8079357,-0.2353724,0.9482124,-7.4475069,1620.0000000,1543.0000000,0.0000000,1512.0000000,1025.0000000,0.0000000,0.0000000,0.0100000,0.0000000,-9.6152277,37.3358040,0.0000000,-77.2368011,1620.0000000,1543.0000000,1512.0000000,1047.0000000,0.0000000,0.0000000,0.0000000,350.4595337,0.0000000,0.0000000,0.0000000
0.0019950,0.0023271,0.0040197,0.0000000,0.0000000,0.0000000,-7.9068246,0.0000000,0.0036560,0.0000000,0.0000000,0.4138320,96.0959244,15.6740704,8.4463148,0.0000000,0.0000000,0.0000000,0.0000000,0.0000000,20.8494720,0.0000000,0.0000000,0.0000000,0.0000000,0.0000000,0.0000000,0.0000000,0.0000000,4.9676480,140.1974792,0.0000000,3.0000000,0.0000000,0.0000000,0.0000000,0.0000000,0.0000000,0.0000000,0.0000000,0.0000000,0.0000000,0.0689889,0.0412214,0.0386384,0.0356484,-9.9323454,37.3358040,-77.2368011,9.0000000,0.0000000,0.0000000,0.0000000,0.0049534,0.0000000,0.0000000,0.0035336,-1.0000000,-1.0000000,-1.0000000,-1.0000000,-0.0142180,-1.0000000,0.0000000,0.1752407,-0.0675835,0.0000000,0.0212747,-0.3530174,-0.0025297,0.0000000,0.0000000,0.0000000,0.0000000,0.0000000,0.0000000,0.0000000,0.0000000,0.0000000,0.0000000,0.0000000,0.0000000,0.0000000,0.7517730,0.0000000,0.0000000,0.0000000,0.0000000,0.0000000,0.0000000,0.0000000,0.0000000,0.0000000,400.0000000,-0.8094102,1.9470522,0.0000000,0.7517730,133.8555145,1.0000000,-0.0527784,0.0591851,-0.0354483,0.0564771,-0.0525309,-9.9323454,0.0196669,0.9497097,-7.5787406,1620.0000000,1543.0000000,0.0000000,1512.0000000,1025.0000000,0.0000000,0.0000000,0.0100000,0.0000000,-9.7336330,37.3358040,0.0000000,-77.2368011,1620.0000000,1543.0000000,1512.0000000,1047.0000000,0.0000000,0.0000000,0.0000000,350.3537903,0.0000000,0.0000000,0.0000000
0.0020254,0.0023778,0.0038351,0.0000000,0.0000000,0.0000000,-8.0708666,0.0000000,0.0035576,0.0000000,0.0000000,0.4140246,96.0941086,15.6740704,8.4503307,0.0000000,0.0000000,0.0000000,0.0000000,0.0000000,20.8494720,0.0000000,0.0000000,0.0000000,0.0000000,0.0000000,0.0000000,0.0000000,0.0000000,4.9889226,140.1974792,0.0000000,3.0000000,0.0000000,0.0000000,0.0000000,0.0000000,0.0000000,0.0000000,0.0000000,0.0000000,0.0000000,0.0762973,0.0433897,0.0382052,0.0389181,-10.0311394,37.3358040,-77.2368011,8.0000000,0.0000000,0.0000000,0.0000000,0.0049434,0.0000000,0.0000000,0.0035336,-1.0000000,-1.0000000,-1.0000000,-1.0000000,-0.0142180,-1.0000000,0.0000000,0.1698924,0.0103496,0.0000000,0.0159560,-0.3196558,-0.4221821,0.0000000,0.0000000,0.0000000,0.0000000,0.0000000,0.0000000,0.0000000,0.0000000,0.0000000,0.0000000,0.0000000,0.0000000,0.0000000,0.7517730,0.0000000,0.0000000,0.0000000,0.0000000,0.0000000,0.0000000,0.0000000,0.0000000,0.0000000,400.0000000,-0.8094102,1.9470522,0.0000000,0.7517730,134.8555298,0.0000000,-0.0540868,0.0656341,-0.0389031,0.0551600,-0.0519579,-10.0311394,-0.3241874,0.9481031,-7.7427826,1620.0000000,1543.0000000,0.0000000,1512.0000000,1025.0000000,0.0000000,0.0000000,0.0100070,0.0000000,-9.8353901,37.3358040,0.0000000,-77.2368011,1620.0000000,1543.0000000,1512.0000000,1047.0000000,0.0000000,0.0000000,0.0000000,350.2324219,0.0000000,0.0000000,0.0000000
0.0021724,0.0026009,0.0040624,0.0000000,0.0000000,1.0000000,-8.1692915,0.0000000,0.0034603,0.0000000,0.0000000,0.4142269,96.0922012,15.6833391,8.4545507,0.0000000,0.0000000,0.0000000,0.0000000,0.0000000,20.8494720,0.0000000,0.0000000,0.0000000,0.0000000,0.0000000,0.0000000,0.0000000,0.0000000,4.9729667,140.1974792,0.0000000,3.0000000,0.0000000,0.0000000,0.0000000,0.0000000,0.0000000,0.0000000,0.0000000,0.0000000,0.0000000,0.0643061,0.0464841,0.0405499,0.0385973,-10.1168184,37.3358040,-77.2368011,8.0000000,0.0000000,0.0000000,0.0000000,0.0049334,0.0000000,0.0000000,0.0035336,-1.0000000,-1.0000000,-1.0000000,-1.0000000,-0.0142180,-1.0000000,0.0000000,0.1954409,-0.0475350,0.0000000,0.0159560,-0.3374214,-0.4026297,0.0000000,0.0000000,0.0000000,0.0000000,0.0000000,0.0000000,0.0000000,0.0000000,0.0000000,0.0000000,0.0000000,0.0000000,0.0000000,0.7517730,0.0000000,0.0000000,0.0000000,0.0000000,0.0000000,0.0000000,0.0000000,0.0000000,0.0000000,400.0000000,-0.8094102,1.9470522,0.0000000,0.7517730,135.8555145,0.0000000,-0.0532630,0.0459536,-0.0449837,0.0571564,-0.0517060,-10.1168184,0.0279327,0.9498981,-7.9396329,1620.0000000,1543.0000000,0.0000000,1512.0000000,1025.0000000,0.0000000,0.0000000,0.0100000,0.0000000,-9.9588795,37.3358040,0.0000000,-77.2368011,1620.0000000,1543.0000000,1512.0000000,1047.0000000,0.0000000,0.0000000,0.0000000,350.1130981,0.0000000,0.0000000,0.0000000
0.0021041,0.0024233,0.0038884,0.0000000,0.0000000,1.0000000,-8.3661423,0.0000000,0.0036569,0.0000000,0.0000000,0.4144175,96.0904007,15.6833391,8.4585228,0.0000000,0.0000000,0.0000000,0.0000000,0.0000000,20.8618011,0.0000000,0.0000000,0.0000000,0.0000000,0.0000000,0.0000000,0.0000000,0.0000000,4.9463735,140.1974792,0.0000000,3.0000000,0.0000000,0.0000000,0.0000000,0.0000000,0.0000000,0.0000000,0.0000000,0.0000000,0.0000000,0.0638177,0.0464030,0.0390094,0.0361573,-10.2036066,37.3358040,-77.2368011,8.0000000,0.0000000,0.0000000,0.0000000,0.0049234,0.0000000,0.0000000,0.0035336,-1.0000000,-1.0000000,-1.0000000,-1.0000000,-0.0142180,-1.0000000,0.0000000,0.2073056,0.0094299,0.0000000,0.0159560,-0.3296360,-0.4758576,0.0000000,0.0000000,0.0000000,0.0000000,0.0000000,0.0000000,0.0000000,0.0000000,0.0000000,0.0000000,0.0000000,0.0000000,0.0000000,0.7517730,0.0000000,0.0000000,0.0000000,0.0000000,0.0000000,0.0000000,0.0000000,0.0000000,0.0000000,400.0000000,-0.8094102,1.9470522,0.0000000,0.7517730,136.8555145,1.0000000,-0.0471593,0.0497686,-0.0399473,0.0562170,-0.0521801,-10.2036066,-0.1769163,0.9475015,-8.0708666,1620.0000000,1543.0000000,0.0000000,1512.0000000,1025.0000000,0.0000000,0.0000000,0.0100000,0.0000000,-10.0310507,37.3358040,0.0000000,-77.2368011,1620.0000000,1543.0000000,1512.0000000,1047.0000000,0.0000000,0.0000000,0.0000000,350.0336609,0.0000000,0.0000000,0.0000000
0.0019835,0.0023580,0.0040997,0.0000000,0.0000000,0.0000000,-8.5629930,0.0000000,0.0036105,0.0000000,0.0000000,0.4146098,96.0885849,15.6833391,8.4625320,0.0000000,0.0000000,0.0000000,0.0000000,0.0000000,20.8494720,0.0000000,0.0000000,0.0000000,0.0000000,0.0000000,0.0000000,0.0000000,0.0000000,4.9729667,140.1974792,0.0000000,3.0000000,0.0000000,0.0000000,0.0000000,0.0000000,0.0000000,0.0000000,0.0000000,0.0000000,0.0000000,0.0592084,0.0445044,0.0421717,0.0380998,-10.3035574,37.3358040,-77.2368011,8.0000000,0.0000000,0.0000000,0.0000000,0.0049134,0.0000000,0.0000000,0.0035336,-1.0000000,-1.0000000,-1.0000000,-1.0000000,-0.0142180,-1.0000000,0.0000000,0.2085822,-0.0064918,0.0000000,0.0212747,-0.3218549,-0.1586477,0.0000000,0.0000000,0.0000000,0.0000000,0.0000000,0.0000000,0.0000000,0.0000000,0.0000000,0.0000000,0.0000000,0.0000000,0.0000000,0.7517730,0.0000000,0.0000000,0.0000000,0.0000000,0.0000000,0.0000000,0.0000000,0.0000000,0.0000000,400.0000000,-0.8094102,1.9470522,0.0000000,0.7517730,137.8555145,1.0000000,-0.0390072,0.0480510,-0.0345938,0.0569555,-0.0534775,-10.3035574,-0.0590821,0.9483116,-8.2020998,1620.0000000,1543.0000000,0.0000000,1512.0000000,1025.0000000,0.0000000,0.0000000,0.0100000,0.0000000,-10.1324186,37.3358040,0.0000000,-77.2368011,1620.0000000,1543.0000000,1512.0000000,1047.0000000,0.0000000,0.0000000,0.0000000,349.9247131,0.0000000,0.0000000,0.0000000
0.0020059,0.0023908,0.0040265,0.0000000,0.0000000,1.0000000,-8.6942263,0.0000000,0.0036199,0.0000000,0.0000000,0.4148133,96.0866699,15.6740704,8.4667768,0.0000000,0.0000000,0.0000000,0.0000000,0.0000000,20.8494720,0.0000000,0.0000000,0.0000000,0.0000000,0.0000000,0.0000000,0.0000000,0.0000000,4.9942417,140.1974792,0.0000000,3.0000000,0.0000000,0.0000000,0.0000000,0.0000000,0.0000000,0.0000000,0.0000000,0.0000000,0.0000000,0.0581234,0.0433705,0.0406071,0.0368734,-10.4044905,37.3358040,-77.2368011,8.0000000,0.0000000,0.0000000,0.0000000,0.0049033,0.0000000,0.0000000,0.0035336,-1.0000000,-1.0000000,-1.0000000,-1.0000000,-0.0142180,-1.0000000,0.0000000,0.2044510,-0.1167242,0.0000000,0.0159560,-0.3326302,-0.5011613,0.0000000,0.0000000,0.0000000,0.0000000,0.0000000,0.0000000,0.0000000,0.0000000,0.0000000,0.0000000,0.0000000,0.0000000,0.0000000,0.7517730,0.0000000,0.0000000,0.0000000,0.0000000,0.0000000,0.0000000,0.0000000,0.0000000,0.0000000,400.0000000,-0.8094102,1.9470522,0.0000000,0.7517730,138.8555145,0.0000000,-0.0449657,0.0437158,-0.0383048,0.0541298,-0.0523026,-10.4044905,0.0430149,0.9494849,-8.4317589,1620.0000000,1543.0000000,0.0000000,1512.0000000,1025.0000000,0.0000000,0.0000000,0.0100050,0.0000000,-10.2356825,37.3358040,0.0000000,-77.2368011,1620.0000000,1543.0000000,1512.0000000,1047.0000000,0.0000000,0.0000000,0.0000000,349.8243713,0.0000000,0.0000000,0.0000000
0.0020323,0.0024903,0.0038450,0.0000000,0.0000000,0.0000000,-8.8582678,0.0000000,0.0035064,0.0000000,0.0000000,0.4150049,96.0848541,15.6833391,8.4707727,0.0000000,0.0000000,0.0000000,0.0000000,0.0000000,20.8618011,0.0000000,0.0000000,0.0000000,0.0000000,0.0000000,0.0000000,0.0000000,0.0000000,4.9676480,140.1974792,0.0000000,3.0000000,0.0000000,0.0000000,0.0000000,0.0000000,0.0000000,0.0000000,0.0000000,0.0000000,0.0000000,0.0407064,0.0438124,0.0380622,0.0387293,-10.5404816,37.3358040,-77.2368011,8.0000000,0.0000000,0.0000000,0.0000000,0.0048933,0.0000000,0.0000000,0.0035336,-1.0000000,-1.0000000,-1.0000000,-1.0000000,-0.0142180,-1.0000000,0.0000000,0.2342475,-0.0185482,0.0000000,0.0159560,-0.3715170,-0.3555893,0.0000000,0.0000000,0.0000000,0.0000000,0.0000000,0.0000000,0.0000000,0.0000000,0.0000000,0.0000000,0.0000000,0.0000000,0.0000000,0.7517730,0.0000000,0.0000000,0.0000000,0.0000000,0.0000000,0.0000000,0.0000000,0.0000000,0.0000000,400.0000000,-0.8094102,1.9470522,0.0000000,0.7517730,139.8555145,0.0000000,-0.0414581,0.0330183,-0.0238076,0.0541238,-0.0527766,-10.5404816,0.0480056,0.9504134,-8.5958014,1620.0000000,1543.0000000,0.0000000,1512.0000000,1025.0000000,0.0000000,0.0000000,0.0099970,0.0000000,-10.3381004,37.3358040,0.0000000,-77.2368011,1620.0000000,1543.0000000,1512.0000000,1047.0000000,0.0000000,0.0000000,0.0000000,349.7342834,0.0000000,0.0000000,0.0000000
0.0019885,0.0025211,0.0039652,0.0000000,0.0000000,0.0000000,-9.0223103,0.0000000,0.0033230,0.0000000,0.0000000,0.4152083,96.0829391,15.6833391,8.4750156,0.0000000,0.0000000,0.0000000,0.0000000,0.0000000,20.8494720,0.0000000,0.0000000,0.0000000,0.0000000,0.0000000,0.0000000,0.0000000,0.0000000,4.9197803,140.1974792,0.0000000,3.0000000,0.0000000,0.0000000,0.0000000,0.0000000,0.0000000,0.0000000,0.0000000,0.0000000,0.0000000,0.0320648,0.0452438,0.0395391,0.0380844,-10.5924473,37.3358040,-77.2368011,8.0000000,0.0000000,0.0000000,0.0000000,0.0048833,0.0000000,0.0000000,0.0035336,-1.0000000,-1.0000000,-1.0000000,-1.0000000,-0.0142180,-1.0000000,0.0000000,0.2489333,-0.0773595,0.0000000,0.0212747,-0.3506619,0.6975042,0.0000000,0.0000000,0.0000000,0.0000000,0.0000000,0.0000000,0.0000000,0.0000000,0.0000000,0.0000000,0.0000000,0.0000000,0.0000000,0.7517730,0.0000000,0.0000000,0.0000000,0.0000000,0.0000000,0.0000000,0.0000000,0.0000000,0.0000000,400.0000000,-0.8094102,1.9470522,0.0000000,0.7517730,140.8555145,1.0000000,-0.0424018,0.0274888,-0.0165081,0.0549576,-0.0545474,-10.5924473,0.3877478,0.9480993,-8.7270346,1620.0000000,1543.0000000,0.0000000,1512.0000000,1025.0000000,0.0000000,0.0000000,0.0099970,0.0000000,-10.4210730,37.3358040,0.0000000,-77.2368011,1620.0000000,1543.0000000,1512.0000000,1047.0000000,0.0000000,0.0000000,0.0000000,349.6551819,0.0000000,0.0000000,0.0000000
0.0019481,0.0026345,0.0038719,0.0000000,0.0000000,1.0000000,-9.1535435,0.0000000,0.0037435,0.0000000,0.0000000,0.4153985,96.0811462,15.6740704,8.4789801,0.0000000,0.0000000,0.0000000,0.0000000,0.0000000,20.8618011,0.0000000,0.0000000,0.0000000,0.0000000,0.0000000,0.0000000,0.0000000,0.0000000,4.9463735,140.1974792,0.0000000,3.0000000,0.0000000,0.0000000,0.0000000,0.0000000,0.0000000,0.0000000,0.0000000,0.0000000,0.0000000,0.0318922,0.0483853,0.0372497,0.0384796,-10.6615057,37.3358040,-77.2368011,9.0000000,0.0000000,0.0000000,0.0000000,0.0051046,0.0000000,0.0000000,0.0035336,-1.0000000,-1.0000000,-1.0000000,-1.0000000,-0.0142180,-1.0000000,0.0000000,0.2463754,0.0099258,0.0000000,0.0159560,-0.3072691,0.0052750,0.0000000,0.0000000,0.0000000,0.0000000,0.0000000,0.0000000,0.0000000,0.0000000,0.0000000,0.0000000,0.0000000,0.0000000,0.0000000,0.7517730,0.0000000,0.0000000,0.0000000,0.0000000,0.0000000,0.0000000,0.0000000,0.0000000,0.0000000,400.0000000,-0.8094102,1.9470522,0.0000000,0.7517730,141.8555298,0.0000000,-0.0399278,0.0309934,-0.0075182,0.0574008,-0.0498744,-10.6615057,-0.0079408,0.9504825,-8.8910770,1620.0000000,1543.0000000,0.0000000,1512.0000000,1025.0000000,0.0000000,0.0000000,0.0100080,0.0000000,-10.4978466,37.3358040,0.0000000,-77.2368011,1620.0000000,1543.0000000,1512.0000000,1047.0000000,0.0000000,0.0000000,0.0000000,349.5646973,0.0000000,0.0000000,0.0000000
0.0020255,0.0025869,0.0039244,0.0000000,0.0000000,0.0000000,-9.3175859,0.0000000,0.0036182,0.0000000,0.0000000,0.4155907,96.0793304,15.6833391,8.4829903,0.0000000,0.0000000,0.0000000,0.0000000,0.0000000,20.8494720,0.0000000,0.0000000,0.0000000,0.0000000,0.0000000,0.0000000,0.0000000,0.0000000,4.9357362,140.1974792,0.0000000,3.0000000,0.0000000,0.0000000,0.0000000,0.0000000,0.0000000,0.0000000,0.0000000,0.0000000,0.0000000,0.0119906,0.0502011,0.0376213,0.0353120,-10.6925850,37.3358040,-77.2368011,9.0000000,0.0000000,0.0000000,0.0000000,0.0050946,0.0000000,0.0000000,0.0035336,-1.0000000,-1.0000000,-1.0000000,-1.0000000,-0.0142180,-1.0000000,0.0000000,0.2589647,0.0273122,0.0000000,0.0212747,-0.3060087,-0.6429987,0.0000000,0.0000000,0.0000000,0.0000000,0.0000000,0.0000000,0.0000000,0.0000000,0.0000000,0.0000000,0.0000000,0.0000000,0.0000000,0.7517730,0.0000000,0.0000000,0.0000000,0.0000000,0.0000000,0.0000000,0.0000000,0.0000000,0.0000000,400.0000000,-0.8094102,1.9470522,0.0000000,0.7517730,142.8555298,1.0000000,-0.0355304,0.0104717,0.0058411,0.0551888,-0.0526553,-10.6925850,-0.2370665,0.9501487,-9.0223103,1620.0000000,1543.0000000,0.0000000,1512.0000000,1025.0000000,0.0000000,0.0000000,0.0099950,0.0000000,-10.6048555,37.3358040,0.0000000,-77.2368011,1620.0000000,1543.0000000,1512.0000000,1047.0000000,0.0000000,0.0000000,0.0000000,349.4535217,0.0000000,0.0000000,0.0000000
0.0019403,0.0023344,0.0039856,0.0000000,0.0000000,0.0000000,-9.3832026,0.0000000,0.0037849,0.0000000,0.0000000,0.4157930,96.0774231,15.6833391,8.4872093,0.0000000,0.0000000,0.0000000,0.0000000,0.0000000,20.8494720,0.0000000,0.0000000,0.0000000,0.0000000,0.0000000,0.0000000,0.0000000,0.0000000,4.9463735,140.1974792,0.0000000,3.0000000,0.0000000,0.0000000,0.0000000,0.0000000,0.0000000,0.0000000,0.0000000,0.0000000,0.0000000,0.0014352,0.0441637,0.0377816,0.0370499,-10.7861853,37.3358040,-77.2368011,9.0000000,0.0000000,0.0000000,0.0000000,0.0050846,0.0000000,0.0000000,0.0035336,-1.0000000,-1.0000000,-1.0000000,-1.0000000,-0.0142180,-1.0000000,0.0000000,0.2699342,0.0472385,0.0000000,0.0159560,-0.3884757,-0.2335204,0.0000000,0.0000000,0.0000000,0.0000000,0.0000000,0.0000000,0.0000000,0.0000000,0.0000000,0.0000000,0.0000000,0.0000000,0.0000000,0.7517730,0.0000000,0.0000000,0.0000000,0.0000000,0.0000000,0.0000000,0.0000000,0.0000000,0.0000000,400.0000000,-0.8094102,1.9470522,0.0000000,0.7517730,143.8555145,0.0000000,-0.0401389,-0.0005441,-0.0013280,0.0548335,-0.0524591,-10.7861853,-0.3849041,0.9462454,-9.1535435,1620.0000000,1543.0000000,0.0000000,1512.0000000,1025.0000000,0.0000000,0.0000000,0.0100000,0.0000000,-10.6835432,37.3358040,0.0000000,-77.2368011,1620.0000000,1543.0000000,1512.0000000,1047.0000000,0.0000000,0.0000000,0.0000000,349.3679810,0.0000000,0.0000000,0.0000000
0.0019686,0.0023101,0.0037355,0.0000000,0.0000000,0.0000000,-9.5144358,0.0000000,0.0035377,0.0000000,0.0000000,0.4159852,96.0756149,15.6833391,8.4912176,0.0000000,0.0000000,0.0000000,0.0000000,0.0000000,20.8494720,0.0000000,0.0000000,0.0000000,0.0000000,0.0000000,0.0000000,0.0000000,0.0000000,4.7761755,140.1974792,0.0000000,3.0000000,0.0000000,0.0000000,0.0000000,0.0000000,0.0000000,0.0000000,0.0000000,0.0000000,0.0000000,0.0155082,0.0417564,0.0386444,0.0385151,-10.8160524,37.3358040,-77.2368011,10.0000000,0.0000000,0.0000000,0.0000000,0.0050746,0.0000000,0.0000000,0.0035336,-1.0000000,-1.0000000,-1.0000000,-1.0000000,-0.0142180,-1.0000000,0.0000000,0.2250522,-0.0980438,0.0000000,0.0212747,-0.2958772,0.3920046,0.0000000,0.0000000,0.0000000,0.0000000,0.0000000,0.0000000,0.0000000,0.0000000,0.0000000,0.0000000,0.0000000,0.0000000,0.0000000,0.7517730,0.0000000,0.0000000,0.0000000,0.0000000,0.0000000,0.0000000,0.0000000,0.0000000,0.0000000,400.0000000,-0.8094102,1.9470522,0.0000000,0.7517730,144.8555145,0.0000000,-0.0399285,0.0061296,-0.0142454,0.0546262,-0.0538736,-10.8160524,0.0925147,0.9501832,-9.3503942,1620.0000000,1543.0000000,0.0000000,1512.0000000,1025.0000000,0.0000000,0.0000000,0.0100000,0.0000000,-10.7541084,37.3358040,0.0000000,-77.2368011,1620.0000000,1543.0000000,1512.0000000,1047.0000000,0.0000000,0.0000000,0.0000000,349.3074036,0.0000000,0.0000000,0.0000000
